[
    {
        "AdminId":"ch1020",
        "AdminPass":"Chandni",
        "AdminLocation":"London",
        "AdminLatitude":21.840,
        "AdminLongitude":31.293
    },
    {
        "AdminId":"ay2090",
        "AdminPass":"Ayushi",
        "AdminLocation":"Sydney",
        "AdminLatitude":35.140,
        "AdminLongitude":21.293
    },
    {
        "AdminId":"ash8120",
        "AdminPass":"Ashish",
        "AdminLocation":"Cape Town",
        "AdminLatitude":31.100,
        "AdminLongitude":31.343
    },
    {
        "AdminId":"gash921",
        "AdminPass":"Gaurav",
        "AdminLocation":"Seatle",
        "AdminLatitude":52.840,
        "AdminLongitude":10.293
    },
    {
        "AdminId":"mg0791",
        "AdminPass":"Megha",
        "AdminLocation":"New York",
        "AdminLatitude":11.140,
        "AdminLongitude":56.208
    },
    {
        "AdminId":"dp8726",
        "AdminPass":"Deepanshu",
        "AdminLocation":"Paris",
        "AdminLatitude":20.840,
        "AdminLongitude":15.293
    },
    {
        "AdminId":"am6040",
        "AdminPass":"Amit",
        "AdminLocation":"Dubai",
        "AdminLatitude":52.840,
        "AdminLongitude":61.293
    }
]